,City,Cloudiness,Country,Date,Humidity,Latitude,Longitude,Max Temperature,Wind Speed
0,Wufeng,100,CN,1563145306,94,27.44,104.87,61.78,1.86
1,Punta Arenas,75,CL,1563144935,93,-53.16,-70.91,35.6,2.24
2,Yellowknife,40,CA,1563144916,35,62.45,-114.38,71.6,6.93
3,Bethel,75,US,1563144944,60,60.79,-161.76,68.0,5.46
4,Labytnangi,81,RU,1563145306,84,66.66,66.39,57.46,6.26
5,Mataura,70,NZ,1563145306,92,-46.19,168.86,39.99,3.0
6,Gat,0,SN,1563145307,74,14.69,-16.54,80.6,10.29
7,Geraldton,90,CA,1563145122,60,49.72,-86.95,75.2,9.17
8,Barrow,100,AR,1563145307,65,-38.31,-60.23,50.08,11.74
9,Rikitea,70,PF,1563145307,85,-23.12,-134.97,75.1,14.65
10,Ardmore,1,US,1563145308,78,34.99,-86.85,86.0,1.61
11,Puerto Ayora,20,EC,1563145308,61,-0.74,-90.35,78.8,20.8
12,Saint-Philippe,75,CA,1563145308,53,45.36,-73.48,77.0,4.7
13,Bilma,18,NE,1563145308,15,18.69,12.92,92.92,4.68
14,Carnarvon,0,ZA,1563145308,26,-30.97,22.13,50.44,4.97
15,Lebu,75,ET,1563145309,93,8.96,38.73,57.2,2.24
16,Zhigansk,33,RU,1563145309,40,66.77,123.37,62.14,18.34
17,Atuona,8,PF,1563144921,75,-9.8,-139.03,80.86,15.61
18,Lodhikheda,40,IN,1563145309,83,21.58,78.83,78.8,4.7
19,San Policarpo,100,PH,1563145310,87,12.18,125.51,77.98,9.86
20,Klaksvik,99,FO,1563144917,100,62.23,-6.59,51.8,5.82
21,Houma,96,CN,1563145310,40,35.63,111.36,82.48,9.64
22,Avarua,41,CK,1563144775,60,-21.21,-159.78,75.2,8.05
23,New Norfolk,40,AU,1563144931,75,-42.78,147.06,48.0,6.93
24,Bluff,93,AU,1563144925,39,-23.58,149.07,54.4,2.1
25,Kutum,74,SD,1563144935,54,14.2,24.66,76.72,10.18
26,Luganville,75,VU,1563145311,88,-15.51,167.18,77.0,2.24
27,Poum,20,MK,1563144995,82,41.28,20.71,55.4,4.7
28,Pevek,100,RU,1563145015,98,69.7,170.27,33.88,17.85
29,Astana,0,KZ,1563145311,82,51.13,71.43,57.2,6.71
30,Belaya Gora,36,RU,1563145000,63,68.54,146.19,58.18,10.96
31,Saldanha,0,PT,1563144929,65,41.42,-6.55,70.6,2.77
32,Bredasdorp,14,ZA,1563144940,87,-34.53,20.04,44.6,2.24
33,Moshenskoye,55,RU,1563145312,96,58.52,34.59,44.86,3.67
34,San Cristobal,22,HN,1563145028,58,14.68,-86.92,76.54,7.58
35,Hermanus,8,ZA,1563144922,97,-34.42,19.24,52.0,16.11
36,Ribeira Grande,76,PT,1563144938,70,38.52,-28.7,68.98,9.51
37,Saint George,40,GR,1563144974,60,39.45,22.34,73.4,1.36
38,Mezen,77,RU,1563144923,92,65.85,44.24,50.08,5.28
39,Hervey Bay,83,AU,1563145027,43,-25.3,152.85,57.0,10.29
40,Constitucion,75,MX,1563145027,72,23.99,-104.67,72.0,6.93
41,Butaritari,100,KI,1563144924,72,3.07,172.79,83.92,9.37
42,Upernavik,4,GL,1563144925,70,72.79,-56.15,45.04,9.89
43,Hilo,90,US,1563144934,58,19.71,-155.08,84.2,9.17
44,Thompson,75,CA,1563144892,56,55.74,-97.86,69.8,2.24
45,Ushuaia,20,AR,1563144919,86,-54.81,-68.31,37.4,3.36
46,Pimentel,87,BR,1563145313,91,-3.7,-45.5,73.12,2.19
47,Sorong,100,ID,1563145009,79,-0.86,131.25,77.62,9.57
48,Shache,44,CN,1563145009,39,38.42,77.24,72.76,0.83
49,Mar del Plata,21,AR,1563145029,74,-46.43,-67.52,40.54,6.4
50,Melfi,5,IT,1563145314,82,41.0,15.66,64.4,4.7
51,Busselton,38,AU,1563144926,69,-33.64,115.35,48.99,20.24
52,Lima Duarte,0,BR,1563145314,52,-21.84,-43.79,64.4,2.24
53,Samfya,0,ZM,1563145315,65,-11.37,29.56,50.98,5.06
54,Torbay,90,CA,1563144741,100,47.66,-52.73,52.0,11.41
55,Ercis,0,TR,1563145315,44,39.03,43.36,61.0,0.81
56,Aguadilla,1,PR,1563145118,94,18.43,-67.15,77.0,9.17
57,Santiago del Estero,8,AR,1563145315,83,-27.8,-64.26,58.9,5.12
58,Flinders,0,AU,1563144933,62,-34.58,150.85,55.99,17.22
59,Vaini,72,IN,1563144921,90,15.34,74.49,76.36,1.41
60,Qaanaaq,85,GL,1563144920,72,77.48,-69.36,43.42,11.03
61,Turukhansk,99,RU,1563145316,72,65.8,87.96,61.06,3.96
62,Kropotkin,95,RU,1563144995,64,45.43,40.58,63.58,6.96
63,Pangnirtung,100,CA,1563144992,45,66.15,-65.72,53.5,5.06
64,Saalfeld,75,DE,1563145317,82,50.65,11.36,60.01,5.82
65,Hirara,40,JP,1563144935,88,24.8,125.28,82.4,3.36
66,Dingle,95,PH,1563145010,82,11.0,122.67,78.34,1.77
67,Hami,48,CN,1563145012,17,42.84,93.51,82.48,9.15
68,Santa Cruz del Sur,53,CU,1563145317,67,20.71,-78.0,81.58,11.99
69,Key West,1,US,1563145317,62,47.93,-96.78,87.8,13.87
70,Krasnoarmeysk,0,RU,1563145318,76,56.12,38.15,57.2,4.47
71,Anshan,36,CN,1563145318,53,41.11,122.99,82.48,0.78
72,Tual,87,ID,1563145318,82,-5.67,132.75,77.8,22.26
73,Sydney,20,AU,1563145231,50,-33.85,151.22,57.99,23.04
74,Rawlins,1,US,1563145318,17,41.79,-107.24,87.8,13.27
75,Cape Town,0,ZA,1563144940,81,-33.93,18.42,52.0,8.05
76,Ola,99,RU,1563145008,95,59.58,151.3,48.64,12.08
77,Henties Bay,0,NA,1563145319,96,-22.12,14.28,53.01,1.99
78,Flin Flon,40,CA,1563144955,50,54.77,-101.88,75.2,5.82
79,Umba,99,RU,1563145319,93,66.69,34.34,45.22,6.55
80,Sechura,23,PE,1563144949,86,-5.56,-80.82,64.66,14.67
81,Husavik,85,CA,1563145009,49,50.56,-96.99,86.0,8.01
82,Anadyr,75,RU,1563145030,87,64.73,177.51,55.4,13.42
83,Zhuhai,0,CN,1563145320,67,40.71,112.04,62.6,8.95
84,Pankrushikha,8,RU,1563145320,77,53.83,80.35,59.8,7.96
85,Monrovia,20,LR,1563145320,94,6.33,-10.8,73.4,7.72
86,Itupiranga,0,BR,1563145320,62,-5.13,-49.33,84.2,3.36
87,Albany,40,US,1563144631,42,42.65,-73.75,82.4,23.04
88,Katsuura,75,JP,1563144967,83,33.93,134.5,75.2,6.93
89,Sabzevar,1,IR,1563145321,60,36.21,57.68,74.56,9.22
90,Kargasok,4,RU,1563145321,64,59.06,80.87,62.32,2.42
91,Izberbash,0,RU,1563145321,82,42.57,47.86,60.8,6.71
92,Khanpur,1,PK,1563145321,61,28.65,70.66,84.28,16.17
93,Aklavik,75,CA,1563144977,49,68.22,-135.01,73.4,11.41
94,Constantine,0,DZ,1563145322,44,36.36,6.61,75.2,10.29
95,Norman Wells,75,CA,1563144932,46,65.28,-126.83,71.6,3.36
96,Bayeux,75,BR,1563145322,100,-7.13,-34.94,73.4,3.36
97,Tuktoyaktuk,75,CA,1563144922,63,69.44,-133.03,62.6,8.05
98,Chongwe,0,ZM,1563145322,65,-15.33,28.68,48.82,5.5
99,Hofn,100,IS,1563144984,98,64.25,-15.21,43.24,3.51
100,Roros,86,NO,1563145323,87,62.57,11.38,44.6,5.82
101,Dong Hoi,100,VN,1563145191,74,17.48,106.6,82.66,4.09
102,Chokurdakh,93,RU,1563144958,71,70.62,147.9,44.5,13.85
103,Tabuk,47,PH,1563144949,78,17.41,121.44,72.22,1.61
104,Mazyr,100,BY,1563145323,90,52.05,29.27,55.12,2.53
105,Qasigiannguit,20,GL,1563145324,33,68.82,-51.19,57.2,4.7
106,Atherton,80,AU,1563145324,68,-17.27,145.48,69.01,13.87
107,Asosa,99,ET,1563145324,96,10.07,34.53,65.2,1.68
108,Vilhena,0,BR,1563145324,57,-12.74,-60.15,78.8,2.24
109,Dunhua,100,CN,1563145325,84,43.37,128.23,64.48,6.46
110,Jackson,20,US,1563145084,30,43.48,-110.76,84.2,8.05
111,Coahuayana,100,MX,1563145000,79,18.62,-100.35,82.48,0.96
112,Raudeberg,82,NO,1563145325,81,61.99,5.14,51.8,17.22
113,Coquimbo,0,CL,1563145325,76,-29.95,-71.34,55.4,5.82
114,Alice Springs,0,AU,1563144963,50,-23.7,133.88,32.0,6.93
115,Kyzyl-Suu,0,KG,1563145326,64,42.34,78.0,65.92,6.76
116,Mahebourg,75,MU,1563144903,88,-20.41,57.7,66.2,4.7
117,Codrington,0,AU,1563145011,50,-28.95,153.24,53.6,14.99
118,Dikson,100,RU,1563145015,84,73.51,80.55,41.62,12.66
119,Freetown,40,BS,1563145326,79,26.61,-78.36,84.2,2.24
120,Port Hardy,40,CA,1563145326,64,50.7,-127.42,68.0,6.93
121,Iskateley,100,RU,1563145327,93,67.68,53.15,47.92,5.99
122,Tuatapere,98,NZ,1563145026,93,-46.13,167.69,39.0,3.0
123,Nikolskoye,17,RU,1563145327,81,59.7,30.79,53.01,1.83
124,Waipawa,0,NZ,1563145327,72,-39.94,176.59,51.01,11.99
125,Pimenta Bueno,0,BR,1563145327,51,-11.68,-61.19,79.06,3.49
126,Georgetown,20,GY,1563144945,74,6.8,-58.16,84.2,9.17
127,Lazo,100,RU,1563145328,84,45.88,133.65,67.36,9.6
128,San Quintin,41,PH,1563145029,79,17.54,120.52,80.32,3.18
129,Kuching,75,MY,1563145328,94,1.56,110.34,73.4,2.24
130,College,1,US,1563145328,46,64.86,-147.8,77.0,6.93
131,Naze,100,NG,1563145328,97,5.43,7.07,73.66,1.88
132,Brae,75,GB,1563144992,93,60.4,-1.35,51.8,4.7
133,Faanui,31,PF,1563144959,73,-16.48,-151.75,79.24,8.3
134,Port Blair,100,IN,1563145329,78,11.67,92.75,84.28,17.72
135,Provideniya,40,RU,1563144955,71,64.42,-173.23,53.6,8.95
136,Kaitangata,64,NZ,1563144926,75,-46.28,169.85,42.01,3.0
137,Meulaboh,95,ID,1563144926,71,4.14,96.13,80.86,7.16
138,Berdigestyakh,95,RU,1563145329,52,62.1,126.7,68.8,7.43
139,Ouargaye,8,BF,1563145330,53,11.5,0.06,83.38,5.93
140,Narsaq,1,GL,1563145004,62,60.91,-46.05,57.2,13.87
141,Guerrero Negro,0,MX,1563144948,83,27.97,-114.04,69.52,12.97
142,Medicine Hat,40,CA,1563145330,39,50.04,-110.68,87.01,10.29
143,Gizo,0,IL,1563145330,69,31.8,34.94,78.8,5.82
144,Port Lincoln,97,AU,1563144929,76,-34.72,135.86,54.22,12.59
145,Bambanglipuro,0,ID,1563145068,80,-7.95,110.28,74.02,14.09
146,Nelson Bay,58,AU,1563144931,58,-32.72,152.14,57.0,23.04
147,Tasiilaq,100,GL,1563144920,81,65.61,-37.64,42.8,9.17
148,Trairi,49,BR,1563144919,92,-3.28,-39.27,71.5,3.42
149,Seddon,75,AU,1563145331,81,-37.81,144.89,51.01,12.75
150,Ancud,0,CL,1563144954,81,-41.87,-73.83,44.6,8.05
151,Hobart,40,AU,1563145247,75,-42.88,147.33,48.0,3.36
152,Nouadhibou,0,MR,1563144805,83,20.93,-17.03,69.8,25.28
153,Haines Junction,12,CA,1563144928,39,60.75,-137.51,65.92,11.27
154,Emerald,79,AU,1563145332,70,-23.53,148.16,46.0,4.7
155,Inhambane,0,MZ,1563144962,93,-23.87,35.38,60.16,3.29
156,Gimbi,62,ET,1563145332,90,8.81,37.79,52.06,1.1
157,Sitka,0,US,1563144966,43,37.17,-99.65,90.0,5.99
158,Sampit,86,ID,1563144938,91,-2.54,112.95,72.22,1.83
159,Oistins,75,BB,1563145333,94,13.07,-59.53,77.0,18.34
160,Hithadhoo,57,MV,1563144924,70,-0.6,73.08,83.02,4.61
161,Clyde River,90,CA,1563145333,93,70.47,-68.59,41.0,14.99
162,Airai,74,TL,1563144925,62,-8.93,125.41,73.12,4.07
163,East London,0,ZA,1563144929,84,-33.02,27.91,52.78,3.53
164,West Bay,75,CA,1563145333,56,49.34,-123.21,75.99,10.29
165,Deputatskiy,58,RU,1563145033,53,69.3,139.9,51.7,11.21
166,Leh,51,IN,1563145334,62,34.16,77.58,37.66,0.89
167,Camocim,50,BR,1563144722,87,-2.9,-40.84,74.74,5.1
168,Sooke,75,CA,1563145334,72,48.37,-123.73,73.99,12.75
169,Goure,41,NE,1563145334,30,13.98,10.27,91.48,4.32
170,Thinadhoo,100,MV,1563145335,69,0.53,72.93,83.38,4.12
171,Mapiripan,96,CO,1563145335,92,2.89,-72.13,74.02,1.92
172,Tromso,20,NO,1563145310,87,69.65,18.96,48.2,5.82
173,Nome,90,US,1563145335,88,30.04,-94.42,91.0,9.17
174,Kolosovka,17,RU,1563145335,83,56.47,73.61,62.86,6.49
175,Sao Filipe,26,CV,1563144965,87,14.9,-24.5,74.38,12.44
176,Oranjemund,0,ZA,1563145336,87,-28.55,16.43,54.4,9.13
177,Grand-Santi,44,GF,1563145336,91,4.27,-54.38,72.58,1.95
178,Bandarbeyla,83,SO,1563145336,66,9.49,50.81,77.98,26.28
179,Pisco,90,PE,1563144981,30,-13.71,-76.2,71.6,14.99
180,Kathmandu,90,NP,1563145253,100,27.71,85.32,66.2,3.33
181,Senador Jose Porfirio,93,BR,1563145337,87,-2.59,-51.95,76.54,4.16
182,Laguna,40,BZ,1563144942,62,16.17,-88.94,89.6,6.93
183,Ormara,86,PK,1563145337,82,25.21,64.64,80.14,14.2
184,Tiksi,94,RU,1563144951,56,71.64,128.87,46.12,12.64
185,Kruisfontein,9,ZA,1563144965,88,-34.0,24.73,48.28,4.16
186,Kodiak,1,US,1563144952,16,39.95,-94.76,91.4,8.05
187,Te Anau,38,NZ,1563144979,72,-45.41,167.72,41.26,4.12
188,Sabha,0,LY,1563145338,17,27.03,14.43,88.96,6.51
189,Alofi,98,NU,1563144998,69,-19.06,-169.92,77.0,13.87
190,Asyut,0,EG,1563145338,65,27.18,31.19,82.4,10.18
191,Santiago de Cao,75,PE,1563145338,82,-7.96,-79.24,64.4,10.29
192,Broome,68,GB,1563144982,71,52.47,1.45,57.99,5.82
193,Port Elizabeth,20,US,1563144947,52,39.31,-74.98,89.6,10.29
194,Chapais,75,CA,1563145338,67,49.78,-74.86,62.6,10.29
195,Kuytun,100,RU,1563145339,95,54.34,101.51,57.64,6.85
196,Havre-Saint-Pierre,90,CA,1563144942,100,50.23,-63.6,55.4,12.75
197,Skorping,37,DK,1563145339,87,56.84,9.89,55.99,8.59
198,Karpathos,8,GR,1563145207,88,35.51,27.21,77.0,8.05
199,Viedma,70,AR,1563145339,58,-40.81,-62.99,47.02,8.55
200,Iguape,73,BR,1563145339,96,-24.7,-47.56,63.94,6.29
201,Bathsheba,75,BB,1563144976,94,13.22,-59.52,77.0,18.34
202,Tilichiki,18,RU,1563145340,55,60.47,166.1,70.96,5.57
203,Khatanga,74,RU,1563144927,53,71.98,102.47,53.68,11.36
204,Eyrarbakki,90,IS,1563145340,82,63.86,-21.15,59.0,12.75
205,Minot,1,US,1563145179,43,48.23,-101.3,89.6,12.75
206,Nyurba,94,RU,1563144967,65,63.29,118.35,65.2,7.43
207,Vostok,100,RU,1563145026,93,46.45,135.83,59.8,4.0
208,Chulym,0,RU,1563145341,80,55.09,80.97,60.52,7.38
209,Fairbanks,1,US,1563144690,46,64.84,-147.72,77.0,6.93
210,Suleja,100,NG,1563145341,94,9.18,7.18,74.56,5.84
211,Cabo San Lucas,20,MX,1563144828,55,22.89,-109.91,96.01,20.8
212,Birao,98,CF,1563145341,89,10.3,22.78,73.84,3.91
213,Katobu,62,ID,1563145342,73,-4.94,122.53,76.9,7.76
214,Fortuna,40,US,1563144937,72,40.6,-124.16,66.99,14.99
215,Kapaa,40,US,1563144783,74,22.08,-159.32,84.2,12.75
216,Ust-Nera,92,RU,1563144983,60,64.57,143.24,63.4,7.94
217,Tanout,1,NE,1563145342,31,14.97,8.88,91.3,7.61
218,Roald,75,NO,1563144977,81,62.58,6.12,52.0,2.24
219,Luderitz,0,NA,1563144956,100,-26.65,15.16,48.2,1.12
220,Nanortalik,94,GL,1563144953,95,60.14,-45.24,38.02,3.96
221,Mayumba,100,GA,1563145343,91,-3.44,10.65,70.96,7.27
222,Abnub,0,EG,1563145343,65,27.27,31.15,82.4,10.18
223,Zaria,76,NG,1563145343,90,11.11,7.72,69.16,5.06
224,Dunedin,30,NZ,1563145025,58,-45.87,170.5,48.0,8.99
225,Eskisehir,40,TR,1563145274,93,39.78,30.52,55.4,4.7
226,Nadym,11,RU,1563145344,67,65.53,72.51,71.86,15.48
227,Weinan,0,CN,1563145344,65,34.5,109.46,77.0,11.18
228,Tema,0,GH,1563145344,83,5.66,-0.01,77.0,10.29
229,Bowen,75,AU,1563145345,76,-20.01,148.25,62.01,2.24
230,Paita,0,PE,1563144936,290,-5.09,-81.11,62.6,11.41
231,Noumea,75,NC,1563144700,94,-22.28,166.46,68.0,13.58
232,Wanning,20,AT,1563144819,100,48.64,13.53,57.0,1.12
233,Mount Isa,14,AU,1563144987,34,-20.73,139.49,50.0,12.75
234,Namibe,46,AO,1563145003,85,-15.19,12.15,66.46,14.18
235,Gajendragarh,71,IN,1563145345,82,15.73,75.98,73.84,10.94
236,Chernyshevskiy,83,RU,1563145346,74,63.01,112.47,66.64,10.16
237,Weston,20,US,1563145346,47,41.2,-73.38,89.6,5.82
238,Sinnamary,0,GF,1563145346,79,5.38,-52.96,81.22,11.74
239,Arraial do Cabo,5,BR,1563144927,73,-22.97,-42.02,72.4,2.66
240,Darhan,100,MN,1563144962,78,49.49,105.92,65.92,4.63
241,Saint-Augustin,75,CA,1563144972,49,45.63,-73.98,75.99,10.29
242,Kupang,20,ID,1563144972,73,-10.16,123.6,73.4,10.29
243,Port Alfred,0,ZA,1563144927,90,-33.59,26.89,60.01,3.0
244,Jamestown,44,AU,1563144953,83,-33.21,138.6,49.18,10.04
245,Naqadeh,0,IR,1563145347,48,36.96,45.39,52.96,5.06
246,Byron Bay,0,AU,1563145347,81,-28.65,153.62,59.0,3.36
247,San Matias,68,BO,1563145348,33,-16.36,-58.4,82.48,1.45
248,Egvekinot,100,RU,1563144948,82,66.32,-179.17,54.4,12.75
249,Touros,40,BR,1563144785,88,-5.2,-35.46,77.0,3.36
250,Kintampo,0,GH,1563145348,91,8.05,-1.73,70.78,4.72
251,Bubaque,71,GW,1563145020,83,11.28,-15.83,79.96,12.64
252,Mount Gambier,75,AU,1563144971,87,-37.83,140.78,50.0,12.75
253,Victoria,75,BN,1563144941,94,5.28,115.24,77.0,1.12
254,Goderich,0,CA,1563144782,77,43.74,-81.71,72.0,2.75
255,Namatanai,100,PG,1563145023,81,-3.66,152.44,78.16,6.15
256,Hobyo,8,SO,1563144921,72,5.35,48.53,77.62,20.33
257,Claveria,100,PH,1563145349,94,8.61,124.89,75.0,1.01
258,Pochutla,75,MX,1563145349,59,15.74,-96.47,89.6,8.05
259,Argentan,0,FR,1563145349,77,48.74,-0.02,59.0,4.7
260,Shestakovo,100,RU,1563145350,82,56.49,103.96,59.44,6.51
261,Harper,40,US,1563144973,36,30.3,-99.24,96.8,9.17
262,Balabac,100,PH,1563145350,80,7.99,117.06,80.68,9.95
263,Doctor Juan Leon Mallorquin,90,PY,1563145350,93,-25.4,-55.27,66.2,8.05
264,Ornskoldsvik,100,SE,1563145350,93,63.29,18.72,57.2,3.44
265,Srednekolymsk,100,RU,1563144999,90,67.46,153.71,46.12,13.82
266,Pacific Grove,1,US,1563145351,35,36.62,-121.92,95.0,20.8
267,Surami,0,GE,1563145351,79,42.02,43.56,56.02,5.32
268,Yulara,0,AU,1563144978,69,-25.24,130.99,39.2,6.93
269,Kilis,0,TR,1563145351,39,36.72,37.12,70.0,1.12
270,Algiers,40,US,1563145351,94,29.94,-90.04,81.0,8.05
271,Kalmunai,98,LK,1563145030,86,7.42,81.82,76.18,2.37
272,Lodingen,100,NO,1563145352,71,68.41,16.0,50.0,13.87
273,Castro,0,CL,1563144957,81,-42.48,-73.76,44.6,8.05
274,Baturaden,35,ID,1563145352,89,-7.32,109.23,68.44,0.36
275,Ambulu,41,ID,1563145352,88,-8.35,113.61,71.14,2.86
276,Atar,5,MR,1563145025,14,20.52,-13.05,98.32,18.95
277,Pitimbu,75,BR,1563145353,100,-7.47,-34.81,73.4,3.36
278,Alencon,0,FR,1563145353,59,48.43,0.08,64.4,9.17
279,Ossora,0,RU,1563144979,59,59.24,163.07,72.04,6.78
280,Odienne,17,CI,1563145329,96,9.51,-7.57,70.78,3.87
281,Chuy,0,UY,1563144922,86,-33.69,-53.46,48.1,7.81
282,Freeport,40,BS,1563145240,79,26.54,-78.7,84.2,2.24
283,Koster,0,ZA,1563145353,40,-25.86,26.9,47.38,5.73
284,Ketchikan,40,US,1563145343,64,55.34,-131.65,68.0,16.11
285,Mogadishu,13,SO,1563145062,80,2.04,45.34,75.64,11.21
286,Kattivakkam,20,IN,1563145354,78,13.22,80.32,80.6,9.17
287,Jiaxing,40,CN,1563145354,100,30.76,120.75,79.0,4.9
288,Vardo,1,US,1563145354,46,39.62,-77.74,91.4,8.05
289,Awjilah,0,LY,1563145354,56,29.14,21.3,76.9,8.46
290,Verkhnevilyuysk,74,RU,1563145024,57,63.45,120.31,67.18,6.89
291,West Wendover,1,US,1563145355,13,40.74,-114.07,96.8,6.93
292,Tocopilla,100,CL,1563145355,83,-22.09,-70.2,58.36,8.7
293,Sabancuy,100,MX,1563145355,76,18.97,-91.18,85.18,14.92
294,Oyo,100,NG,1563145355,96,7.84,3.93,72.58,4.85
295,Chalchihuites,70,MX,1563145356,38,23.48,-103.88,74.38,12.55
296,Terrace,75,CA,1563145356,56,54.52,-128.61,69.01,5.82
297,Dwarka,75,IN,1563144963,69,28.58,77.04,91.0,8.05
298,Lagoa,0,PT,1563145356,73,37.14,-8.45,71.6,11.41
299,Florianopolis,75,BR,1563145241,93,-27.6,-48.55,64.0,5.82
300,Trinidad,40,BO,1563145214,70,-14.83,-64.9,84.2,2.91
301,Aberfeldy,75,GB,1563145357,87,56.62,-3.87,57.2,8.05
302,Ponta Delgada,20,PT,1563144836,82,37.73,-25.67,68.0,10.29
303,Moose Factory,1,CA,1563145357,50,51.26,-80.61,77.0,6.93
304,Onokhoy,20,RU,1563145357,72,51.92,108.05,62.6,8.95
305,Benghazi,0,LY,1563144948,79,32.12,20.07,79.24,3.56
306,Kargil,0,PK,1563144993,70,34.56,76.13,47.92,6.22
307,Hovd,75,NO,1563144974,76,63.83,10.7,51.8,14.99
308,Yongan,28,CN,1563145358,49,39.7,113.69,74.2,3.24
309,Havelock,20,US,1563145335,52,34.88,-76.9,91.4,9.17
310,Balaipungut,99,ID,1563145358,97,1.11,101.31,74.74,1.5
311,Esso,42,RU,1563145358,48,55.93,158.7,64.3,7.96
312,Kjollefjord,100,NO,1563145359,90,70.95,27.35,43.78,4.52
313,Taoudenni,15,ML,1563145006,22,22.68,-3.98,92.74,2.62
314,Zabid,19,YE,1563145359,55,14.2,44.5,70.24,1.59
315,Srikakulam,83,IN,1563145359,69,18.29,83.89,81.76,2.84
316,Tarauaca,81,BR,1563145360,93,-8.16,-70.77,72.94,2.13
317,Togur,0,RU,1563145360,68,58.36,82.83,59.62,5.79
318,Kahului,20,US,1563145360,48,20.89,-156.47,89.6,17.22
319,Lahaina,20,US,1563145328,48,20.87,-156.68,89.6,17.22
320,Griffith,40,AU,1563145226,93,-34.29,146.06,46.4,17.22
321,Bambous Virieux,75,MU,1563145014,88,-20.34,57.76,66.2,4.7
322,Qinggang,90,CN,1563145361,89,28.25,121.28,84.0,0.43
323,Kynashiv,100,UA,1563145361,92,48.67,28.9,59.0,1.34
324,Bilibino,100,RU,1563144995,60,68.06,166.44,61.06,6.17
325,New Richmond,40,CA,1563145361,83,48.17,-65.87,69.8,6.31
326,Sao Jose da Laje,40,BR,1563145361,83,-9.01,-36.06,73.4,4.7
327,Cap-aux-Meules,75,CA,1563145362,88,47.38,-61.86,64.4,13.87
328,Saskylakh,2,RU,1563144945,55,71.97,114.09,49.36,11.9
329,Rio Gallegos,40,AR,1563145362,78,-51.62,-69.22,33.8,4.7
330,Cidreira,100,BR,1563144923,86,-30.17,-50.22,50.26,5.39
331,Itarema,50,BR,1563145362,89,-2.92,-39.92,74.02,5.1
332,High Level,75,CA,1563145362,46,58.52,-117.13,69.8,10.29
333,Betare Oya,97,CM,1563145363,97,5.6,14.08,63.94,0.89
334,Antofagasta,40,CL,1563145363,67,-23.65,-70.4,57.2,10.29
335,Leningradskiy,98,RU,1563144923,95,69.38,178.42,37.3,10.38
336,Broken Hill,90,AU,1563145363,76,-31.97,141.45,48.2,14.99
337,Tomatlan,99,MX,1563145363,71,19.93,-105.25,84.82,16.42
338,Iqaluit,75,CA,1563144949,75,63.75,-68.52,46.4,8.05
339,Cururupu,65,BR,1563145364,97,-1.82,-44.87,71.86,2.57
340,Sri Aman,100,MY,1563145364,94,1.24,111.46,69.8,3.27
341,Lata,88,IN,1563144939,96,30.78,78.62,38.56,1.66
342,Iralaya,75,HN,1563145364,74,15.0,-83.23,86.0,10.29
343,Sokoto,69,NG,1563145365,60,13.06,5.24,82.84,13.82
344,Bara,100,NG,1563145365,90,10.41,10.6,72.94,6.49
345,Tapes,100,BR,1563145365,74,-30.67,-51.4,52.24,7.61
346,Nikolayevka,14,RU,1563145365,65,46.73,38.57,72.04,11.59
347,Nenjiang,87,CN,1563145366,86,49.17,125.23,68.62,6.22
348,Rudnogorsk,100,RU,1563145366,59,57.27,103.75,65.74,4.36
349,Champerico,75,MX,1563145366,49,16.38,-93.6,89.6,9.17
350,Talara,0,PE,1563145366,290,-4.58,-81.27,62.6,11.41
351,Longyearbyen,40,NO,1563144962,81,78.22,15.63,42.8,8.05
352,Gayny,39,RU,1563145366,97,60.3,54.33,49.72,3.15
353,Grindavik,75,IS,1563144694,93,63.84,-22.43,59.0,16.11
354,Hualmay,2,PE,1563144957,87,-11.1,-77.61,61.6,17.0
355,Necochea,100,AR,1563144988,82,-38.55,-58.74,46.0,1.01
356,Channel-Port aux Basques,96,CA,1563145092,97,47.57,-59.14,55.12,17.56
357,Mnogovershinnyy,99,RU,1563145367,67,53.94,139.92,67.9,5.59
358,Rurrenabaque,40,BO,1563145367,70,-14.44,-67.53,86.0,2.24
359,Komsomolskiy,100,RU,1563144981,94,67.55,63.78,47.74,10.6
360,Manasa,61,IN,1563145368,78,24.48,75.27,77.44,18.23
361,Jardim,50,BR,1563145368,56,-21.48,-56.15,72.4,1.12
362,Conway,90,US,1563145368,88,35.09,-92.44,75.0,13.87
363,Sharan,0,AF,1563145369,19,33.15,68.78,64.84,9.84
364,Banyo,76,CM,1563145369,90,6.75,11.81,63.04,3.02
365,Karema,0,TZ,1563145369,59,-6.82,30.44,76.72,6.64
366,Saint-Georges,35,CA,1563145369,68,46.12,-70.67,68.0,3.0
367,Rylsk,68,RU,1563145369,73,51.57,34.68,56.2,3.91
368,Kavaratti,100,IN,1563144983,75,10.57,72.64,82.84,15.88
369,Manjacaze,0,MZ,1563145370,95,-24.71,33.88,59.98,4.36
370,Veshenskaya,0,RU,1563145370,81,49.63,41.73,58.18,3.15
371,Esperance,0,AU,1563145014,100,-33.86,121.89,41.0,9.17
372,Elat,67,CM,1563145370,99,2.91,11.16,65.92,1.57
373,Nantucket,1,US,1563144956,65,41.28,-70.1,86.0,5.82
374,Talnakh,100,RU,1563144946,93,69.49,88.39,53.6,6.71
375,Pedasi,100,PA,1563145371,90,7.53,-80.03,74.56,3.56
376,Ponta do Sol,22,BR,1563144958,62,-20.63,-46.0,63.94,1.77
377,Labuhan,63,ID,1563144960,76,-2.54,115.51,74.2,0.65
378,Kasangulu,35,CD,1563145371,69,-4.59,15.17,78.8,2.3
379,Portland,40,US,1563145011,47,43.66,-70.25,81.0,11.41
380,Kondinskoye,9,RU,1563145371,89,59.65,67.41,66.64,9.4
381,Vao,46,EE,1563145372,73,59.1,26.19,48.28,5.21
382,Champaign,90,US,1563145208,73,40.12,-88.24,91.4,9.17
383,Canto do Buriti,78,BR,1563145372,47,-8.11,-42.94,79.96,5.66
384,Cherskiy,100,RU,1563144937,80,68.75,161.3,44.32,23.24
385,Athabasca,83,CA,1563145202,80,54.72,-113.29,63.58,3.85
386,Vanimo,41,PG,1563145372,77,-2.67,141.3,80.86,3.58
387,Tazovskiy,49,RU,1563144975,91,67.47,78.7,56.74,11.18
388,Antalaha,58,MG,1563145373,90,-14.9,50.28,56.92,4.36
389,Souillac,0,FR,1563144943,49,45.6,-0.6,69.8,9.17
390,Svetlogorsk,75,RU,1563145373,72,53.14,59.15,66.2,6.71
391,Palapye,0,BW,1563145373,59,-22.54,27.12,48.1,3.18
392,Gorontalo,100,ID,1563145290,74,0.54,123.06,78.7,9.78
393,Belyy Yar,0,RU,1563145374,68,53.6,91.39,64.4,6.71
394,Port Shepstone,0,ZA,1563145374,24,-30.74,30.45,62.5,8.66
395,Banikoara,70,BJ,1563145374,69,11.3,2.44,79.42,4.9
396,Fushun,1,CN,1563145375,88,41.89,123.95,71.6,4.47
397,Sabang,100,PH,1563145375,93,13.8,121.11,74.56,1.54
398,Solnechnyy,64,RU,1563145375,62,50.72,136.64,75.46,2.37
399,Northam,0,AU,1563144947,66,-31.65,116.67,51.8,12.75
400,Shubarkuduk,59,KZ,1563145375,87,49.15,56.49,66.1,27.16
401,Sobolevo,99,RU,1563145376,87,54.43,31.9,52.78,2.66
402,Saint-Ambroise,75,CA,1563145376,60,48.56,-71.32,68.0,13.87
403,Aswan,0,EG,1563145376,24,24.09,32.9,93.2,9.17
404,Leku,71,ET,1563145376,95,6.87,38.44,56.92,5.84
405,Boca do Acre,56,BR,1563145377,56,-8.76,-67.39,80.14,1.52
406,Kuala Lumpur,75,MY,1563145218,94,3.15,101.71,77.0,4.7
407,Hambantota,97,LK,1563144985,81,6.12,81.12,81.58,17.83
408,Bitung,20,ID,1563145377,65,1.44,125.19,80.6,10.29
409,Jiazi,20,CN,1563145377,94,19.61,110.49,80.6,3.58
410,Zyryanka,71,RU,1563145377,79,65.73,150.89,53.68,20.51
411,Vancouver,1,CA,1563145272,46,49.26,-123.12,75.99,9.17
412,Peniche,20,PT,1563145378,88,39.36,-9.38,66.99,8.05
413,Evensk,94,RU,1563145378,89,61.92,159.24,53.86,5.75
414,Rebrikha,7,RU,1563145378,78,53.08,82.34,59.98,11.48
415,Los Llanos de Aridane,75,ES,1563145378,88,28.66,-17.92,71.6,18.34
416,Jiuquan,0,CN,1563145379,21,39.73,98.49,75.82,5.82
417,Kavieng,99,PG,1563144959,80,-2.57,150.8,80.32,4.59
418,Acapulco,75,MX,1563144952,70,16.86,-99.88,86.0,8.05
419,Khor,99,RU,1563145379,80,47.88,134.96,70.6,5.39
420,Honjo,40,JP,1563145379,78,39.38,140.05,73.4,5.82
421,Talas,0,KG,1563145380,44,42.52,72.24,61.6,2.64
422,Ostersund,98,SE,1563145380,81,63.18,14.64,48.2,11.41
423,Oktyabrskiy,68,RU,1563145001,87,55.61,37.97,57.0,2.24
424,Zunyi,100,CN,1563145380,86,27.73,106.92,71.32,3.38
425,Vila Velha,0,BR,1563144983,74,-3.71,-38.6,86.0,4.7
426,Zhangye,100,CN,1563145381,33,38.94,100.46,69.16,4.61
427,Ugoofaaru,100,MV,1563145381,73,5.67,73.0,83.38,8.97
428,Saint Anthony,1,US,1563144994,18,43.97,-111.68,89.6,9.17
429,Mareeba,58,AU,1563145381,68,-16.99,145.42,69.01,13.87
430,Lompoc,0,US,1563144891,31,34.64,-120.46,89.6,12.75
431,Yerbogachen,100,RU,1563145381,65,61.28,108.01,69.7,7.9
432,Mecca,0,SA,1563144802,37,21.43,39.83,82.3,3.96
433,Maroon Town,20,JM,1563145382,70,18.34,-77.8,86.0,23.04
434,Susanville,1,US,1563145382,13,40.42,-120.65,87.8,21.92
435,Ngawi,0,ID,1563145382,76,-7.4,111.45,69.7,2.53
436,Catia La Mar,20,VE,1563145382,55,10.6,-67.03,87.8,8.05
437,Cayenne,20,GF,1563144960,83,4.94,-52.33,80.6,5.82
438,Martapura,41,ID,1563145383,82,-3.41,114.85,75.1,5.32
439,Fallon,1,US,1563145383,40,46.84,-105.12,89.6,6.93
440,Faya,0,SA,1563145383,37,18.39,42.45,82.4,9.17
441,Ewa Beach,40,US,1563145383,48,21.32,-158.01,88.0,19.46
442,Gornyy,100,RU,1563145384,83,51.76,48.54,60.52,4.79
443,Snasa,100,NO,1563145384,97,64.25,12.38,44.86,3.06
444,Nurobod,0,UZ,1563145384,31,40.91,69.8,78.8,4.7
445,Lakatoro,97,VU,1563145384,77,-16.11,167.42,77.62,7.45
446,Kawalu,48,ID,1563145384,87,-7.38,108.21,65.92,2.91
447,Marsaxlokk,75,MT,1563145385,88,35.84,14.54,78.8,12.75
448,San Jeronimo,6,PE,1563145385,84,-13.65,-73.37,46.66,3.65
449,Alice Town,1,BS,1563145385,75,25.72,-79.3,83.56,12.1
450,Peleduy,48,RU,1563145385,61,59.63,112.75,70.6,8.05
451,Tayshet,69,RU,1563145385,96,55.94,98.01,56.38,2.51
452,Winslow,24,GB,1563145328,87,51.94,-0.88,59.0,4.7
453,Llangefni,71,GB,1563145303,87,53.26,-4.31,60.01,3.36
454,Buala,97,SB,1563144986,73,-8.15,159.59,81.22,2.59
455,Tabas,0,IR,1563145386,13,33.6,56.92,98.6,2.24
456,Tame,96,CO,1563145386,91,6.46,-71.72,53.86,4.32
457,Hamilton,40,CA,1563144944,44,43.26,-79.87,81.0,9.17
458,Severo-Kurilsk,93,RU,1563144939,97,50.68,156.12,44.14,11.9
459,Libourne,0,FR,1563145386,56,44.91,-0.24,71.01,6.93
460,Bachaquero,55,VE,1563145387,61,9.96,-71.12,86.62,4.72
461,Serik,75,TR,1563145387,73,36.92,31.1,77.0,8.05
462,Boguchany,96,RU,1563144944,88,58.38,97.46,58.0,5.39
463,Chicama,75,PE,1563145387,82,-7.84,-79.15,64.4,10.29
464,Avera,1,US,1563144999,59,33.19,-82.53,93.0,9.17
465,Cartagena,0,ES,1563145388,83,37.63,-1.0,78.01,10.29
466,Teguise,20,ES,1563145388,78,29.06,-13.56,71.6,19.46
467,Port-Gentil,75,GA,1563144936,88,-0.72,8.78,77.0,6.93
468,Mubi,100,NG,1563145388,88,10.27,13.26,73.12,8.12
469,Seoul,40,KR,1563145250,88,37.57,126.98,75.2,3.36
470,Beringovskiy,100,RU,1563144957,72,63.05,179.32,59.8,5.28
471,Uturoa,33,PF,1563145388,78,-16.73,-151.43,78.16,10.16
472,Pingliang,100,CN,1563145389,62,35.54,106.68,66.46,1.01
473,Creston,1,CA,1563145389,25,49.1,-116.52,77.0,8.05
474,Walvis Bay,0,NA,1563144925,93,-22.95,14.51,59.0,2.24
475,Kununurra,0,AU,1563144955,31,-15.77,128.74,60.8,8.05
476,Sijunjung,76,ID,1563145389,94,-0.69,100.95,66.46,1.12
477,Kaeo,5,NZ,1563145004,100,-35.1,173.78,59.0,8.84
478,Maniitsoq,0,GL,1563145390,73,65.42,-52.9,48.28,12.71
479,Guanaja,75,CU,1563145390,74,23.08,-82.07,87.8,13.87
480,Mackay,75,CA,1563145390,67,53.65,-115.58,62.6,12.75
481,Turbat,57,PK,1563145390,85,26.0,63.05,78.34,5.5
482,Kinshasa,35,CD,1563145188,78,-4.32,15.31,78.8,3.36
483,Nabire,84,ID,1563145391,78,-3.36,135.5,74.74,4.85
484,Lorengau,82,PG,1563144984,75,-2.02,147.27,82.48,8.3
485,Tura,99,RU,1563144970,77,64.27,100.22,64.66,5.68
486,Kloulklubed,90,PW,1563145391,78,7.04,134.26,80.6,13.87
487,Kadubivtsi,75,UA,1563145391,100,48.59,25.78,60.01,4.47
488,Tiznit,0,MA,1563145110,93,29.7,-9.73,67.18,3.51
489,Gavrilov Posad,0,RU,1563145391,84,56.56,40.12,48.82,3.0
490,Knyaze-Volkonskoye,0,RU,1563145392,68,48.46,135.46,69.8,4.47
491,Bellevue,20,DE,1563145356,100,50.05,10.19,55.99,6.13
492,Lazaro Cardenas,5,MX,1563145013,14,28.39,-105.62,95.0,12.75
493,Oussouye,65,SN,1563145392,82,12.49,-16.54,79.78,12.3
494,Ozernovskiy,100,RU,1563145392,95,51.5,156.52,44.32,10.27
495,Crateus,52,BR,1563145393,73,-5.18,-40.68,71.86,4.36
496,Pontianak,82,ID,1563145393,77,-0.02,109.34,78.16,17.13
497,Omboue,78,GA,1563145393,83,-1.57,9.26,74.02,13.33
498,San Patricio,100,PY,1563144931,96,-26.98,-56.83,62.14,7.34
499,Armilla,0,ES,1563145393,44,37.14,-3.63,80.01,4.7
500,Bonthe,100,SL,1563145394,86,7.53,-12.5,76.18,8.55
501,Sao Joao da Barra,0,BR,1563145020,78,-21.64,-41.05,73.4,6.93
502,Mbini,97,GQ,1563145021,88,1.58,9.62,76.18,11.81
503,La Ronge,75,CA,1563144976,64,55.1,-105.3,71.6,5.82
504,Sungaipenuh,83,ID,1563145394,95,-2.08,101.38,70.42,3.11
505,Lasa,40,CY,1563145394,73,34.92,32.53,77.0,5.82
506,Luau,0,CD,1563145395,28,-10.7,22.23,62.14,4.97
507,Khasan,61,RU,1563145395,76,42.43,130.64,68.98,4.12
508,Ahuimanu,40,US,1563145395,48,21.44,-157.84,88.0,19.46
509,Baykit,7,RU,1563144975,81,61.68,96.39,56.92,5.48
510,Kita,90,JP,1563145395,100,35.76,139.74,72.0,3.36
511,Cehegin,0,ES,1563145396,59,38.09,-1.8,78.01,4.0
512,Ternate,90,PH,1563145396,88,14.29,120.72,78.8,1.12
513,Kiama,0,AU,1563144962,62,-34.67,150.86,55.99,17.22
514,Makakilo City,40,US,1563145003,48,21.35,-158.09,89.01,19.46
515,Kyren,100,RU,1563145396,98,51.68,102.13,49.54,4.18
516,Biak,100,ID,1563145397,93,-0.91,122.88,63.04,6.15
517,Nalut,0,LY,1563145397,11,31.86,10.98,93.46,13.24
518,Araouane,29,ML,1563145397,26,18.9,-3.53,95.8,5.28
519,Nchelenge,0,ZM,1563145397,51,-9.35,28.74,59.98,8.25
520,Talcahuano,0,CL,1563145398,71,-36.72,-73.12,51.8,5.82
521,Charlestown,75,US,1563145398,42,41.38,-71.64,87.8,9.17
522,Ixtapa,75,MX,1563145147,94,20.71,-105.21,86.0,4.7
523,Fort Nelson,40,CA,1563145003,37,58.81,-122.69,71.6,3.36
524,Ginir,72,ET,1563145399,95,7.14,40.71,56.02,5.19
525,Prince Rupert,75,CA,1563145399,77,54.32,-130.32,64.4,6.93
526,Altay,62,CN,1563145011,61,47.83,88.13,58.36,6.31
527,Arys,0,KZ,1563145205,38,42.43,68.8,75.2,2.24
528,Maryborough,83,AU,1563145399,44,-25.54,152.7,57.1,9.51
529,Horsham,82,AU,1563145399,81,-36.71,142.2,50.98,12.53
530,Copperas Cove,1,US,1563145152,49,31.12,-97.9,95.0,11.41
531,Petropavlovsk-Kamchatskiy,93,RU,1563145367,63,53.05,158.65,64.4,6.71
532,Vieques,75,PR,1563145400,74,18.43,-65.83,84.2,11.41
533,Pidhorodna,98,UA,1563145400,82,48.11,30.89,59.44,3.71
534,Le Vauclin,75,MQ,1563144944,74,14.55,-60.84,84.2,16.11
535,Maragogi,62,BR,1563145195,93,-9.01,-35.22,72.04,5.79
536,Arman,93,RU,1563144920,58,59.7,150.17,65.74,6.4
537,Wodonga,50,AU,1563145401,81,-36.12,146.89,48.2,12.75
538,Santa Isabel do Rio Negro,92,BR,1563145401,95,-0.41,-65.02,74.56,2.21
539,Yumen,0,CN,1563145000,23,40.29,97.04,76.18,10.22
540,Aden,21,YE,1563145401,45,12.79,45.03,89.68,5.28
541,Moville,1,US,1563145401,55,42.49,-96.07,89.6,16.11
542,Aginskoye,97,RU,1563145402,61,51.11,114.54,66.0,3.0
543,Turayf,0,SA,1563145402,23,31.68,38.65,77.0,9.17
544,Dakar,0,SN,1563145402,74,14.69,-17.45,80.6,10.29
545,Onega,27,RU,1563145402,88,63.91,38.09,49.0,5.57
546,Tashtagol,0,RU,1563145402,78,52.76,87.85,59.62,1.95
547,Mabaruma,32,GY,1563144966,94,8.2,-59.78,73.48,2.44
548,Olga,1,US,1563144949,33,34.11,-118.17,97.0,11.41
549,Winder,1,US,1563145136,55,33.99,-83.72,87.01,8.05
550,Dukat,0,AL,1563145403,76,40.25,19.57,72.0,4.61
551,Karasjok,75,NO,1563145403,75,69.47,25.52,46.4,3.36
552,Port Moresby,90,PG,1563145403,100,-9.47,147.16,73.4,10.29
